{"name": "25th Avenue Farmers' Market", "locs": [{"name": "25th Avenue Farmers' Market", "hours": "May - October Tuesday 4:00 PM to 7:30 PM", "urls": ["http://www.pcfma.com/market_home.php?market_id=40"], "address": {"street": "194 W 25th Avenue", "city": "San Mateo", "state": "CA", "zip": "94403"}, "coordinates": [-122.3098753, 37.5433429 ], "market_match": 1, "payments": ["WIC", "SFMNP", "SNAP"], "products": ["Baked Goods", "Flowers", "Seafood", "Vegetables", "Honey", "Meat", "Nursery", "Nuts", "Plants", "Prepared Food"] } ]}
{"name": "Belmont Farmers' Market", "locs": [{"name": "Belmont Farmers' Market", "hours": "January - December Sunday 9:00 AM to 1:00 PM", "urls": ["http://www.pcfma.com/market_home.php?market_id=2"], "address": {"street": "1201 El Camino Real", "city": "Belmont", "state": "CA", "zip": "94002"}, "coordinates": [-122.2743834, 37.5192166 ], "market_match": 1, "payments": ["WIC", "SFMNP", "SNAP"], "products": ["Baked Goods", "Cheese", "Flowers", "Eggs", "Seafood", "Herbs", "Vegetables", "Honey", "Meat", "Nursery", "Nuts", "Poultry", "Prepared Food"] } ]}
{"name": "Burlingame Fresh Market Farmers Market", "locs": [{"name": "Burlingame Fresh Market Farmers Market", "hours": "April - December Sunday 9:00 AM to 1:30 PM, May - mid-September Thursday 4:00 PM to 8:00 PM", "urls": ["http://www.burlingamechamber.org"], "address": {"street": "Howard Ave. & Park", "city": "Burlingame", "state": "CA", "zip": "94010"}, "coordinates": [-122.346, 37.5773 ], "market_match": 0, "payments": [], "products": [] } ]}
{"name": "Coastside Farmers' Market in Half Moon Bay", "locs": [{"name": "Coastside Farmers' Market in Half Moon Bay", "hours": "May - December Saturday 9:00 AM to 1:00 PM", "urls": ["http://www.coastsidefarmersmarket.org"], "address": {"street": "225 Cabrillo Hwy S", "city": "Half Moon Bay", "state": "CA", "zip": "94019"}, "coordinates": [-122.4331, 37.46438 ], "market_match": 0, "payments": ["Credit", "WICcash", "SFMNP", "SNAP"], "products": ["Baked Goods", "Cheese", "Crafts", "Flowers", "Eggs", "Seafood", "Herbs", "Vegetables", "Honey", "Jams", "Meat", "Nursery", "Nuts", "Plants", "Poultry", "Prepared Food", "Soap"] } ]}
{"name": "Coastside Farmers' Market of Pacifca", "locs": [{"name": "Coastside Farmers' Market of Pacifca", "hours": "May - December Wednesday 2:30 PM to 6:30 PM, (CLOSES @ 6:00 in November & December)", "urls": ["http://www.coastsidefarmersmarket.org/"], "address": {"street": "400 Old County Road", "city": "Pacifica", "state": "CA", "zip": "94044"}, "coordinates": [-122.4945196, 37.6099634 ], "market_match": 0, "payments": ["Credit", "WICcash", "SFMNP", "SNAP"], "products": ["Baked Goods", "Cheese", "Flowers", "Eggs", "Seafood", "Herbs", "Vegetables", "Honey", "Jams", "Meat", "Nursery", "Nuts", "Poultry", "Prepared Food", "Soap"] } ]}
{"name": "College of San Mateo Certified Farmers' Market", "locs": [{"name": "College of San Mateo Certified Farmers' Market", "hours": "January - December Saturday 9:00 am to 1:00 pm", "urls": ["http://pcfma.com/market_home.php?market_id=15"], "address": {"street": "1700 W. Hillsdale Blvd.", "city": "San Mateo", "state": "CA", "zip": "94402"}, "coordinates": [-122.335, 37.5339 ], "market_match": 1, "payments": ["WIC", "SFMNP", "SNAP"], "products": ["Baked Goods", "Cheese", "Flowers", "Seafood", "Herbs", "Vegetables", "Honey", "Jams", "Meat", "Nuts", "Plants", "Prepared Food", "Soap"] } ]}
{"name": "Daly City Farmers' Market at Serramonte Center", "locs": [{"name": "Daly City Farmers' Market at Serramonte Center", "hours": "January - December Thursday 9:00 AM to 1:00 PM, Saturday 9:00 AM to 1:00 PM", "urls": ["http://cafarmersmkts.com/markets/category/daly-city"], "address": {"street": "133 Serramonte Center", "city": "Daly City", "state": "CA", "zip": "94015"}, "coordinates": [-122.472196, 37.671261 ], "market_match": 0, "payments": ["WIC", "SFMNP"], "products": ["Baked Goods", "Flowers", "Eggs", "Seafood", "Herbs", "Vegetables", "Nursery", "Nuts", "Prepared Food", "Soap"] } ]}
{"name": "East Palo Alto Community Farmers Market", "locs": [{"name": "East Palo Alto Community Farmers Market", "hours": "January - December Wednesday 12:00 PM to 3:00 PM", "urls": ["http://www.collectiveroots.org"], "address": {"street": "1798-A Bay Road", "city": "East Palo Alto", "state": "CA", "zip": "94303"}, "coordinates": [-122.1338564, 37.471116 ], "market_match": 0, "payments": ["Credit", "WIC", "SNAP"], "products": ["Flowers", "Vegetables"] } ]}
{"name": "Hot Harvest Nights San Carlos Farmers' Market", "locs": [{"name": "Hot Harvest Nights San Carlos Farmers' Market", "hours": "May 2 - September 12 Thursday 4:00 PM to 8:00 PM", "urls": ["https://www.sancarloschamber.org/textpages/farmers_market.aspx"], "address": {"street": "700 Block, Laurel Street", "city": "San Carlos", "state": "CA", "zip": "94070" }, "coordinates": [-122.26, 37.5049 ], "market_match": 0, "payments": [], "products": ["Baked Goods", "Flowers", "Seafood", "Vegetables", "Prepared Food"] } ]}
{"name": "Kaiser Permanente Redwood City Farmers' Market", "locs": [{"name": "Kaiser Permanente Redwood City Farmers' Market", "hours": "May 1 - September 25 Wednesday 10:00 AM to 2:00 PM", "urls": ["http://www.pcfma.com/market_home.php?market_id=39"], "address": {"street": "1150 Veterans Blvd.", "city": "Redwood City", "state": "CA", "zip": "94063"}, "coordinates": [-122.2244889, 37.4895693 ], "market_match": 0, "payments": ["WIC", "SFMNP", "SNAP"], "products": ["Vegetables"] } ]}
{"name": "Kaiser Permanente South San Francisco Farmers' Market", "locs": [{"name": "Kaiser Permanente South San Francisco Farmers' Market", "hours": "May 7 - October 15 Tuesday 10:00 AM to 2:00 PM", "urls": ["http://www.pcfma.com/market_home.php?market_id=26"], "address": {"street": "1200 El Camino Real", "city": "South San Francisco", "state": "CA", "zip": "94080"}, "coordinates": [-122.4392261, 37.6592227 ], "market_match": 1, "payments": ["WIC", "SFMNP", "SNAP"], "products": ["Baked Goods", "Flowers", "Vegetables", "Prepared Food"] } ]}
{"name": "Los Altos Farmers Market", "locs": [{"name": "Los Altos Farmers Market", "hours": "May - September Thursday 4:00 PM to 8:00 PM", "urls": ["http://cafarmersmkts.com/markets/category/los-altos-farmers-market"], "address": {"street": "State Street and Second Street", "city": "Los Altos", "state": "CA", "zip": "94022"}, "coordinates": [-122.1173752, 37.3791712 ], "market_match": 0, "payments": ["WIC", "SFMNP", "SNAP"], "products": ["Baked Goods", "Flowers", "Eggs", "Herbs", "Vegetables", "Jams", "Meat", "Nuts", "Prepared Food", "Soap"] } ]}
{"name": "Menlo Park Farmers' Market", "locs": [{"name": "Menlo Park Farmers' Market", "hours": "January - December Sunday 9:00 AM to 1:00 PM, (Open on all holidays that fall on Sundays, except Christmas)", "urls": ["http://localharvest.org"], "address": {"street": "Chestnut & Menlo Avenues", "city": "Menlo Park", "state": "CA", "zip": "94025"}, "coordinates": [-122.1841, 37.45066 ], "market_match": 0, "payments": ["Credit"], "products": ["Baked Goods", "Flowers", "Eggs", "Seafood", "Herbs", "Vegetables", "Honey", "Jams", "Meat", "Nursery", "Nuts", "Plants", "Poultry", "Soap"] } ]}
{"name": "Millbrae Farmers Market", "locs": [{"name": "Millbrae Farmers Market", "hours": "January - December Saturday 8:00 am to 1:00 pm", "urls": ["http://www.millbrae.com"], "address": {"street": "200 Broadway", "city": "Millbrae", "state": "CA", "zip": "94030"}, "coordinates": [-122.391, 37.6002 ], "market_match": 0, "payments": ["WIC", "SFMNP"], "products": ["Baked Goods", "Flowers", "Seafood", "Herbs", "Vegetables", "Honey", "Nuts", "Plants"] } ]}
{"name": "Pescadero Grown", "locs": [{"name": "Pescadero Grown", "hours": "May - November Tuesday 3:00 PM to 7:00 PM", "urls": ["http://Www.pescaderogrown.org"], "address": {"street": "8875 La Honda Road", "city": "La Honda", "state": "CA", "zip": "94020"}, "coordinates": [-122.2743546, 37.3177646 ], "market_match": 0, "payments": ["Credit", "WIC", "SFMNP", "SNAP"], "products": ["Cheese", "Flowers", "Eggs", "Seafood", "Herbs", "Vegetables", "Jams", "Meat", "Nursery", "Plants", "Poultry"] } ]}
{"name": "PJCC Farmers' Market at Foster City", "locs": [{"name": "PJCC Farmers' Market at Foster City", "hours": "May - October Wednesday 9:00 AM to 1:00 PM", "urls": ["http://www.urbantable.org"], "address": {"street": "800 Foster City Blvd.", "city": "Foster City", "state": "CA", "zip": "94404"}, "coordinates": [-122.266792, 37.558672 ], "market_match": 0, "payments": ["WIC", "WICcash", "SFMNP", "SNAP"], "products": ["Vegetables", "Plants"] } ]}
{"name": "Redwood City Kiwanis Farmers Market", "locs": [{"name": "Redwood City Kiwanis Farmers Market", "hours": "April - November Saturday 8:00 AM to 12:00 PM", "urls": ["http://www.rwcfm.org"], "address": {"street": "850 Winslow Street", "city": "Redwood City", "state": "CA", "zip": "94063"}, "coordinates": [-122.2303, 37.48544 ], "market_match": 0, "payments": ["WICcash"], "products": ["Baked Goods", "Crafts", "Flowers", "Eggs", "Seafood", "Vegetables", "Honey", "Nuts"] } ]}
{"name": "San Mateo Farmers' Market", "locs": [{"name": "San Mateo Farmers' Market", "hours": "January - December Saturday 9:00 AM to 1:00 PM", "urls": ["http://www.pcfma.com/sanmateo"], "address": {"street": "1700 West Hillsdale Boulevard", "city": "San Mateo", "state": "CA", "zip": "94401"}, "coordinates": [-122.337699, 37.533143 ], "market_match": 1, "payments": ["Credit", "WIC", "SFMNP", "SNAP"], "products": ["Baked Goods", "Cheese", "Crafts", "Flowers", "Eggs", "Seafood", "Herbs", "Vegetables", "Honey", "Jams", "Meat", "Nursery", "Nuts", "Plants", "Poultry", "Prepared Food", "Soap", "Wine"] } ]}
{"name": "Saratoga Farmers' Market", "locs": [{"name": "Saratoga Farmers' Market", "hours": "January - December Saturday 9:00 AM to 1:00 PM", "urls": ["http://cafarmersmkts.com/markets/category/saratoga"], "address": {"street": "West Valley College, 14000 Fruitvale Avenue", "city": "Saratoga", "state": "CA", "zip": "95070"}, "coordinates": [-122.013066, 37.26613 ], "market_match": 0, "payments": ["WIC", "SFMNP"], "products": ["Baked Goods", "Cheese", "Flowers", "Eggs", "Seafood", "Herbs", "Vegetables", "Honey", "Jams", "Nursery", "Nuts", "Plants", "Poultry", "Prepared Food", "Soap"] } ]}
{"name": "South San Francisco Farmers Market", "locs": [{"name": "South San Francisco Farmers Market", "hours": "May - October Saturday 10:00 AM to 2:00 PM", "urls": ["http://pcfma.com/market_home.php?market_id=37"], "address": {"street": "748 Tennis Dr", "city": "South San Francisco", "state": "CA", "zip": "94080"}, "coordinates": [-122.427062, 37.654732 ], "market_match": 1, "payments": ["WIC", "SFMNP", "SNAP"], "products": ["Baked Goods", "Flowers", "Herbs", "Vegetables", "Jams", "Nuts", "Prepared Food"] } ]}
